<?xml version="1.0" encoding="UTF-8"?><kml xmlns:skos="http://www.w3.org/2004/02/skos/core#" xmlns="http://www.opengis.net/kml/2.2">
<Document>
<name>TESTING</name>
<Placemark>
<name>a large wood between PONT L'ÉVÈQUE and LES CLOYES</name>
<Point>
<coordinates>3.003177888862389,49.53833135815316,0</coordinates>
</Point>
<ExtendedData/>
</Placemark>
<Placemark>
<name>Attilly</name>
<Point>
<coordinates>3.166774999999999,49.855886,0</coordinates>
</Point>
<ExtendedData/>
</Placemark>
<Placemark>
<name>Aubigny-aux-Kaisnes</name>
<Point>
<coordinates>3.116585000000001,49.77460300000001,0</coordinates>
</Point>
<ExtendedData/>
</Placemark>
<Placemark>
<name>Bailly</name>
<Point>
<coordinates>2.971595,49.49819,0</coordinates>
</Point>
<ExtendedData/>
</Placemark>
<Placemark>
<name>Beaurevoir</name>
<Point>
<coordinates>3.308624,49.9970209,0</coordinates>
</Point>
<ExtendedData/>
</Placemark>
<Placemark>
<name>Beauvois-en-Cambrésis</name>
<Point>
<coordinates>3.380921,50.140303,0</coordinates>
</Point>
<ExtendedData/>
</Placemark>
<Placemark>
<name>Belle Vue</name>
<Point>
<coordinates>3.4963415,50.1619171,0</coordinates>
</Point>
<ExtendedData/>
</Placemark>
<Placemark>
<name>Béthencourt</name>
<Point>
<coordinates>3.431503,50.137976,0</coordinates>
</Point>
<ExtendedData/>
</Placemark>
<Placemark>
<name>Briastre</name>
<Point>
<coordinates>3.488306,50.160112,0</coordinates>
</Point>
<ExtendedData/>
</Placemark>
<Placemark>
<name>Carlepont</name>
<Point>
<coordinates>3.026819,49.51393,0</coordinates>
</Point>
<ExtendedData/>
</Placemark>
<Placemark>
<name>Caullery</name>
<Point>
<coordinates>3.372099,50.08533299999999,0</coordinates>
</Point>
<ExtendedData/>
</Placemark>
<Placemark>
<name>Colchester</name>
<Point>
<coordinates>0.8918739999999998,51.895927,0</coordinates>
</Point>
<ExtendedData/>
</Placemark>
<Placemark>
<name>Courcelle</name>
<Point>
<coordinates>2.779396,49.31218,0</coordinates>
</Point>
<ExtendedData/>
</Placemark>
<Placemark>
<name>Élincourt</name>
<Point>
<coordinates>3.372131,50.043974,0</coordinates>
</Point>
<ExtendedData/>
</Placemark>
<Placemark>
<name>Estrées</name>
<Point>
<coordinates>3.286587,49.96711100000001,0</coordinates>
</Point>
<ExtendedData/>
</Placemark>
<Placemark>
<name>Étreillers</name>
<Point>
<coordinates>3.160987,49.828754,0</coordinates>
</Point>
<ExtendedData/>
</Placemark>
<Placemark>
<name>Fluquières</name>
<Point>
<coordinates>3.152275,49.803922,0</coordinates>
</Point>
<ExtendedData/>
</Placemark>
<Placemark>
<name>Fontaine-au-Pire</name>
<Point>
<coordinates>3.375606,50.13042,0</coordinates>
</Point>
<ExtendedData/>
</Placemark>
<Placemark>
<name>Forest of Compiègne</name>
<Point>
<coordinates>3.003629379296269,49.36127369368172,0</coordinates>
</Point>
<ExtendedData/>
</Placemark>
<Placemark>
<name>Fréniches</name>
<Point>
<coordinates>3.003553000000001,49.670125,0</coordinates>
</Point>
<ExtendedData/>
</Placemark>
<Placemark>
<name>Guiscard</name>
<Point>
<coordinates>3.052041999999999,49.657427,0</coordinates>
</Point>
<ExtendedData/>
</Placemark>
<Placemark>
<name>Ham</name>
<Point>
<coordinates>3.072472,49.74845000000001,0</coordinates>
</Point>
<ExtendedData/>
</Placemark>
<Placemark>
<name>Harrow</name>
<Point>
<coordinates>-0.341995,51.580559,0</coordinates>
</Point>
<ExtendedData/>
</Placemark>
<Placemark>
<name>Le Cateau-Cambrésis</name>
<Point>
<coordinates>3.544235,50.103942,0</coordinates>
</Point>
<ExtendedData/>
</Placemark>
<Placemark>
<name>Le Catelet</name>
<Point>
<coordinates>3.245743,50.00256199999999,0</coordinates>
</Point>
<ExtendedData/>
</Placemark>
<Placemark>
<name>Le Havre</name>
<Point>
<coordinates>0.1011193,49.4953112,0</coordinates>
</Point>
<ExtendedData/>
</Placemark>
<Placemark>
<name>Les Cloyes</name>
<Point>
<coordinates>3.003298999999999,49.528855,0</coordinates>
</Point>
<ExtendedData/>
</Placemark>
<Placemark>
<name>Libermont</name>
<Point>
<coordinates>2.972976,49.692723,0</coordinates>
</Point>
<ExtendedData/>
</Placemark>
<Placemark>
<name>Ligny-en-Cambrésis</name>
<Point>
<coordinates>3.377422,50.100603,0</coordinates>
</Point>
<ExtendedData/>
</Placemark>
<Placemark>
<name>Malincourt</name>
<Point>
<coordinates>3.324239,50.04718099999999,0</coordinates>
</Point>
<ExtendedData/>
</Placemark>
<Placemark>
<name>Monchy-Lagache</name>
<Point>
<coordinates>3.045184,49.85213789999999,0</coordinates>
</Point>
<ExtendedData/>
</Placemark>
<Placemark>
<name>Muirancourt</name>
<Point>
<coordinates>3.010491,49.6443299,0</coordinates>
</Point>
<ExtendedData/>
</Placemark>
<Placemark>
<name>Nauroy</name>
<Point>
<coordinates>3.255623,49.954391,0</coordinates>
</Point>
<ExtendedData/>
</Placemark>
<Placemark>
<name>Noyon</name>
<Point>
<coordinates>3.0007229,49.58016599999999,0</coordinates>
</Point>
<ExtendedData/>
</Placemark>
<Placemark>
<name>Pierrefonds</name>
<Point>
<coordinates>2.977720300000001,49.34703110000001,0</coordinates>
</Point>
<ExtendedData/>
</Placemark>
<Placemark>
<name>Pont-l'Évêque</name>
<Point>
<coordinates>2.987979000000001,49.56441,0</coordinates>
</Point>
<ExtendedData/>
</Placemark>
<Placemark>
<name>Pontru</name>
<Point>
<coordinates>3.216271,49.903909,0</coordinates>
</Point>
<ExtendedData/>
</Placemark>
<Placemark>
<name>Roisel</name>
<Point>
<coordinates>3.097787,49.9465999,0</coordinates>
</Point>
<ExtendedData/>
</Placemark>
<Placemark>
<name>Romeries</name>
<Point>
<coordinates>3.530269,50.20275099999999,0</coordinates>
</Point>
<ExtendedData/>
</Placemark>
<Placemark>
<name>Saintines</name>
<Point>
<coordinates>2.769367,49.307446,0</coordinates>
</Point>
<ExtendedData/>
</Placemark>
<Placemark>
<name>Saint-Jean-aux-Bois</name>
<Point>
<coordinates>2.90528,49.347129,0</coordinates>
</Point>
<ExtendedData/>
</Placemark>
<Placemark>
<name>Saint-Sauver</name>
<Point>
<coordinates>2.78376116071429,49.31752548953915,0</coordinates>
</Point>
<ExtendedData/>
</Placemark>
<Placemark>
<name>Saint-Sauveur</name>
<Point>
<coordinates>2.783756,49.317528,0</coordinates>
</Point>
<ExtendedData/>
</Placemark>
<Placemark>
<name>Saint-Sulpice</name>
<Point>
<coordinates>3.065287000000001,49.7538,0</coordinates>
</Point>
<ExtendedData/>
</Placemark>
<Placemark>
<name>Selvigny</name>
<Point>
<coordinates>3.34752,50.078582,0</coordinates>
</Point>
<ExtendedData/>
</Placemark>
<Placemark>
<name>Serain</name>
<Point>
<coordinates>3.367902,50.02656700000001,0</coordinates>
</Point>
<ExtendedData/>
</Placemark>
<Placemark>
<name>Sermaize</name>
<Point>
<coordinates>2.959008,49.61557699999999,0</coordinates>
</Point>
<ExtendedData/>
</Placemark>
<Placemark>
<name>Solesmes</name>
<Point>
<coordinates>3.497065134398443,50.18500451754415,0</coordinates>
</Point>
<ExtendedData/>
</Placemark>
<Placemark>
<name>Southampton</name>
<Point>
<coordinates>-1.4049018,50.9105468,0</coordinates>
</Point>
<ExtendedData/>
</Placemark>
<Placemark>
<name>Tertry</name>
<Point>
<coordinates>3.070015000000001,49.86172499999999,0</coordinates>
</Point>
<ExtendedData/>
</Placemark>
<Placemark>
<name>Tracy-le-Mont</name>
<Point>
<coordinates>3.01059,49.47256700000001,0</coordinates>
</Point>
<ExtendedData/>
</Placemark>
<Placemark>
<name>Trosly-Breuil</name>
<Point>
<coordinates>2.964671,49.402594,0</coordinates>
</Point>
<ExtendedData/>
</Placemark>
<Placemark>
<name>Verberie</name>
<Point>
<coordinates>2.727467,49.31029400000001,0</coordinates>
</Point>
<ExtendedData/>
</Placemark>
<Placemark>
<name>Vermand</name>
<Point>
<coordinates>3.149825,49.87808,0</coordinates>
</Point>
<ExtendedData/>
</Placemark>
<Placemark>
<name>Viesly</name>
<Point>
<coordinates>3.463001,50.152538,0</coordinates>
</Point>
<ExtendedData/>
</Placemark>
<Placemark>
<name>Villeret</name>
<Point>
<coordinates>3.1917049,49.95331189999999,0</coordinates>
</Point>
<ExtendedData/>
</Placemark>
<Placemark>
<name>Villers-Outréaux</name>
<Point>
<coordinates>3.298371,50.032169,0</coordinates>
</Point>
<ExtendedData/>
</Placemark>
<Placemark>
<name>Voyennes</name>
<Point>
<coordinates>2.984389999999999,49.77066600000001,0</coordinates>
</Point>
<ExtendedData/>
</Placemark>
<Placemark>
<name>Vraignes-en-Vermandois</name>
<Point>
<coordinates>3.065866,49.887285,0</coordinates>
</Point>
<ExtendedData/>
</Placemark>
</Document>
</kml>
